[
	{
		"id": "HsdMBu19n",
		"name": "Orchard",
		"description": "Quo reiciendis nihil qui facere perferendis officia. Blanditiis omnis fugit et quibusdam cum consequatur. Expedita et error non dolores.",
		"owner": {
			"name": "Jack Breitenberg",
			"phone": "169-591-7190",
			"email": "jack.breitenberg@example.com",
			"location": {
				"address": "5294 Bayer Mill",
				"country": "United States",
				"city": "East Dustin",
				"state": "FL",
				"zip": "53859"
			}
		},
		"location": {
			"address": "2522 Kling Mills",
			"country": "United States",
			"city": "Lake Rebekahmouth",
			"state": "PA",
			"zip": "32325"
		},
		"created": "2019-03-22T02:51:20.608Z",
		"updated": "2019-03-27T00:53:01.420Z",
		"image": "https://source.unsplash.com/960x540/?house&sig=HsdMBu19n"
	},
	{
		"id": "8u1XvGbRI-",
		"name": "Meadow Hills",
		"description": "Autem facere ipsam esse in. Repudiandae nihil delectus iste eum. Est et soluta. Vero non qui.",
		"owner": {
			"name": "Estefania Towne",
			"phone": "242-265-4527",
			"email": "estefania.towne@example.com",
			"location": {
				"address": "857 Swaniawski Mews",
				"country": "United States",
				"city": "Feilfurt",
				"state": "ND",
				"zip": "70318"
			}
		},
		"location": {
			"address": "3689 Newell Road",
			"country": "United States",
			"city": "Auerstad",
			"state": "NV",
			"zip": "94136"
		},
		"created": "2019-05-08T12:24:09.771Z",
		"updated": "2019-07-05T10:29:54.758Z",
		"image": "https://source.unsplash.com/960x540/?house&sig=8u1XvGbRI-"
	},
	{
		"id": "5P-MGz62lQ",
		"name": "Oak Resorts",
		"description": "Quas unde libero quia reprehenderit similique repudiandae tempore dolor. Ratione deserunt tempore mollitia nemo sed accusamus praesentium quo quia. Culpa ut ex similique. Labore eaque qui quos quo ab eos earum. Enim sunt eos est nulla cum voluptas expedita.",
		"owner": {
			"name": "Ayden Pollich",
			"phone": "810-934-0469",
			"email": "ayden.pollich@example.com",
			"location": {
				"address": "3025 Lindgren Mount",
				"country": "United States",
				"city": "West Miles",
				"state": "MA",
				"zip": "84000"
			}
		},
		"location": {
			"address": "6811 Lucienne Summit",
			"country": "United States",
			"city": "Reidview",
			"state": "ME",
			"zip": "57773"
		},
		"created": "2019-05-31T20:23:46.836Z",
		"updated": "2019-06-27T23:10:24.392Z",
		"image": "https://source.unsplash.com/960x540/?house&sig=5P-MGz62lQ"
	},
	{
		"id": "AukQRY9NuV",
		"name": "Willow Creek",
		"description": "Veniam id nemo maxime libero vero iste fuga praesentium omnis. Culpa unde neque quo vero nostrum. Odit exercitationem mollitia labore est quia debitis est.",
		"owner": {
			"name": "Barry Weimann",
			"phone": "683-276-2785",
			"email": "barry.weimann@example.com",
			"location": {
				"address": "5414 Desmond Dale",
				"country": "United States",
				"city": "Harberbury",
				"state": "MA",
				"zip": "73563"
			}
		},
		"location": {
			"address": "6839 Ruecker Cape",
			"country": "United States",
			"city": "West Melba",
			"state": "CO",
			"zip": "28705"
		},
		"created": "2019-06-24T16:21:53.170Z",
		"updated": "2019-06-29T02:12:40.634Z",
		"image": "https://source.unsplash.com/960x540/?house&sig=AukQRY9NuV"
	},
	{
		"id": "YPwVq4DVG2",
		"name": "Sunnyside",
		"description": "Ratione quaerat quos id. Expedita enim quo deleniti sit id itaque. Eos debitis ut quia fugiat commodi earum officiis ratione quo.",
		"owner": {
			"name": "Hershel Huels",
			"phone": "441-280-1014",
			"email": "hershel.huels@example.com",
			"location": {
				"address": "7484 Alfredo Loop",
				"country": "United States",
				"city": "Johannaport",
				"state": "MD",
				"zip": "71379"
			}
		},
		"location": {
			"address": "9194 Stamm Wells",
			"country": "United States",
			"city": "South Ena",
			"state": "NY",
			"zip": "57443"
		},
		"created": "2019-03-21T07:49:57.660Z",
		"updated": "2019-04-23T03:08:31.572Z",
		"image": "https://source.unsplash.com/960x540/?house&sig=YPwVq4DVG2"
	},
	{
		"id": "YegRTQVbJ4",
		"name": "Highfield Hotel",
		"description": "Architecto eum dolorum et eligendi quis. Quo expedita deleniti dignissimos magni qui nostrum. Molestiae aut hic ut laboriosam beatae et sint temporibus ipsam. Est quidem blanditiis laudantium et numquam. Sunt consequatur non dolor.",
		"owner": {
			"name": "Myrtice Schuppe",
			"phone": "944-810-3702",
			"email": "myrtice.schuppe@example.com",
			"location": {
				"address": "8598 Eulah Orchard",
				"country": "United States",
				"city": "Verlabury",
				"state": "DC",
				"zip": "31530"
			}
		},
		"location": {
			"address": "5576 Brenden Forges",
			"country": "United States",
			"city": "Rayville",
			"state": "KY",
			"zip": "67532"
		},
		"created": "2019-03-22T02:55:32.832Z",
		"updated": "2019-06-23T14:58:42.444Z",
		"image": "https://source.unsplash.com/960x540/?house&sig=YegRTQVbJ4"
	},
	{
		"id": "RJ0ZyplKEV",
		"name": "Mill House",
		"description": "Nobis cum vero culpa illum pariatur similique earum. Consequatur vero veniam deleniti ducimus praesentium facere voluptas. Qui natus explicabo ut voluptatem consectetur. Nam quia ut et omnis.",
		"owner": {
			"name": "Julius Klein",
			"phone": "249-353-2274",
			"email": "julius.klein@example.com",
			"location": {
				"address": "223 Clark Summit",
				"country": "United States",
				"city": "West Dean",
				"state": "OH",
				"zip": "00292"
			}
		},
		"location": {
			"address": "3147 Garnett Parkways",
			"country": "United States",
			"city": "Port Gretchenland",
			"state": "DC",
			"zip": "90292"
		},
		"created": "2019-03-10T00:02:42.984Z",
		"updated": "2019-06-26T03:23:06.180Z",
		"image": "https://source.unsplash.com/960x540/?house&sig=RJ0ZyplKEV"
	},
	{
		"id": "Xe14cOnY1f",
		"name": "The Rectory",
		"description": "In cum saepe odio voluptatem. Odit corporis hic et laboriosam impedit modi magnam odio. Esse sed occaecati occaecati quidem. Quia sit qui dignissimos adipisci dignissimos aliquid dolorum ut.",
		"owner": {
			"name": "Marcelino Volkman",
			"phone": "247-857-4999",
			"email": "marcelino.volkman@example.com",
			"location": {
				"address": "9252 Janick Mission",
				"country": "United States",
				"city": "Lake Burleyland",
				"state": "OH",
				"zip": "29487"
			}
		},
		"location": {
			"address": "4626 Lia Fords",
			"country": "United States",
			"city": "Ginaberg",
			"state": "OK",
			"zip": "46391"
		},
		"created": "2019-03-09T11:41:51.830Z",
		"updated": "2019-06-13T13:44:48.018Z",
		"image": "https://source.unsplash.com/960x540/?house&sig=Xe14cOnY1f"
	},
	{
		"id": "X-ZQRvHW8T",
		"name": "Yew Tree Cottage",
		"description": "Nisi voluptas porro quis harum veniam libero assumenda ipsum. Tempora perspiciatis aspernatur ea necessitatibus fugit corrupti at aspernatur sit. Sit est aliquid at maiores accusamus sunt atque occaecati et. Dolor explicabo et quas delectus exercitationem eos. Facilis illum consequatur magnam tempora esse neque.",
		"owner": {
			"name": "Marc Graham",
			"phone": "430-447-5017",
			"email": "marc.graham@example.com",
			"location": {
				"address": "2374 Braulio Row",
				"country": "United States",
				"city": "Lake Newton",
				"state": "AR",
				"zip": "36317"
			}
		},
		"location": {
			"address": "6887 Ollie Crescent",
			"country": "United States",
			"city": "Jaceport",
			"state": "PA",
			"zip": "44767"
		},
		"created": "2019-05-03T09:32:36.903Z",
		"updated": "2019-06-20T22:10:48.123Z",
		"image": "https://source.unsplash.com/960x540/?house&sig=X-ZQRvHW8T"
	},
	{
		"id": "rg5Y-e_M2J",
		"name": "The Old Post Office",
		"description": "Nostrum ab omnis dolorum est rerum eveniet. Quibusdam et error consequatur doloremque. Odit praesentium nam saepe eaque et assumenda.",
		"owner": {
			"name": "Blanca Legros",
			"phone": "083-816-9453",
			"email": "blanca.legros@example.com",
			"location": {
				"address": "371 Macejkovic Glen",
				"country": "United States",
				"city": "Port Annette",
				"state": "MI",
				"zip": "13313"
			}
		},
		"location": {
			"address": "4907 Larkin Plains",
			"country": "United States",
			"city": "South Stuartville",
			"state": "WV",
			"zip": "51348"
		},
		"created": "2019-01-15T13:13:19.746Z",
		"updated": "2019-04-14T06:34:46.312Z",
		"image": "https://source.unsplash.com/960x540/?house&sig=rg5Y-e_M2J"
	},
	{
		"id": "0A9F8Zsdmn",
		"name": "Lilac Vinyard",
		"description": "Sapiente quisquam non cum quam sit atque. Mollitia qui voluptatem ipsum beatae quibusdam quas nulla beatae. Eum doloremque et dicta maiores sapiente fuga dolor.",
		"owner": {
			"name": "Sabina Lueilwitz",
			"phone": "377-284-6602",
			"email": "sabina.lueilwitz@example.com",
			"location": {
				"address": "6602 Rupert Points",
				"country": "United States",
				"city": "Armstrongmouth",
				"state": "LA",
				"zip": "71980"
			}
		},
		"location": {
			"address": "4668 Camila Village",
			"country": "United States",
			"city": "Leannonside",
			"state": "TX",
			"zip": "77388"
		},
		"created": "2019-02-09T15:43:17.688Z",
		"updated": "2019-02-24T07:08:41.339Z",
		"image": "https://source.unsplash.com/960x540/?house&sig=0A9F8Zsdmn"
	},
	{
		"id": "cUI8mE-iuO",
		"name": "Woodside",
		"description": "Occaecati omnis ut itaque. Consequatur tenetur sint et sint quisquam adipisci consectetur. Quia non odit inventore ut ratione et voluptas.",
		"owner": {
			"name": "Kayla Goldner",
			"phone": "931-623-4233",
			"email": "kayla.goldner@example.com",
			"location": {
				"address": "7403 Emilia Fork",
				"country": "United States",
				"city": "Schmidtville",
				"state": "GA",
				"zip": "57638"
			}
		},
		"location": {
			"address": "9192 Mortimer Harbor",
			"country": "United States",
			"city": "Herminiaview",
			"state": "CT",
			"zip": "57269"
		},
		"created": "2019-01-10T10:50:02.503Z",
		"updated": "2019-02-13T10:58:29.569Z",
		"image": "https://source.unsplash.com/960x540/?house&sig=cUI8mE-iuO"
	},
	{
		"id": "Kk4eWRtDlQ",
		"name": "Reed House",
		"description": "Cum rem error iste sint. Ut est ut libero vel. Eius voluptatibus libero velit quia. Fuga omnis et deleniti.",
		"owner": {
			"name": "Kurtis Hayes",
			"phone": "924-394-7668",
			"email": "kurtis.hayes@example.com",
			"location": {
				"address": "6672 Pansy Trail",
				"country": "United States",
				"city": "Halvorsonberg",
				"state": "LA",
				"zip": "55016"
			}
		},
		"location": {
			"address": "4559 Devyn Stravenue",
			"country": "United States",
			"city": "East Michaela",
			"state": "MD",
			"zip": "98030"
		},
		"created": "2019-05-11T18:27:08.008Z",
		"updated": "2019-06-02T06:23:50.612Z",
		"image": "https://source.unsplash.com/960x540/?house&sig=Kk4eWRtDlQ"
	},
	{
		"id": "DhBfRD-DvF",
		"name": "Toad Hall",
		"description": "Iste dolorem rem doloribus nostrum voluptas. Qui consequatur molestias est consequatur error ut. Et suscipit aut ipsam itaque provident dolorem.",
		"owner": {
			"name": "Elissa Ward",
			"phone": "848-393-1235",
			"email": "elissa.ward@example.com",
			"location": {
				"address": "1969 Kulas Land",
				"country": "United States",
				"city": "Lake Lurline",
				"state": "TN",
				"zip": "33749"
			}
		},
		"location": {
			"address": "7666 Caterina Crescent",
			"country": "United States",
			"city": "North Einobury",
			"state": "RI",
			"zip": "43081"
		},
		"created": "2019-01-11T10:47:39.294Z",
		"updated": "2019-06-06T09:01:23.711Z",
		"image": "https://source.unsplash.com/960x540/?house&sig=DhBfRD-DvF"
	},
	{
		"id": "2ftnMZZ7cu",
		"name": "Vicarage",
		"description": "Quam quas quia numquam nesciunt excepturi fuga. Sit consequatur maxime rerum natus similique facere sunt voluptatibus distinctio. Consectetur blanditiis ducimus quis explicabo iste tempora. Sapiente dicta et necessitatibus totam.",
		"owner": {
			"name": "Maverick Kautzer",
			"phone": "055-852-4827",
			"email": "maverick.kautzer@example.com",
			"location": {
				"address": "2882 Metz Turnpike",
				"country": "United States",
				"city": "West Wiltonhaven",
				"state": "OK",
				"zip": "81151"
			}
		},
		"location": {
			"address": "8526 Reese Trace",
			"country": "United States",
			"city": "New Jannie",
			"state": "MI",
			"zip": "59565"
		},
		"created": "2019-01-04T15:43:57.095Z",
		"updated": "2019-06-14T09:50:40.121Z",
		"image": "https://source.unsplash.com/960x540/?house&sig=2ftnMZZ7cu"
	},
	{
		"id": "66LgfXFjyN",
		"name": "Ivy House",
		"description": "Non aut qui possimus. Ea tempore dolores aliquam magni reprehenderit a. Eum sit cum quia et aut iusto id libero.",
		"owner": {
			"name": "Rosalind Bahringer",
			"phone": "090-170-5750",
			"email": "rosalind.bahringer@example.com",
			"location": {
				"address": "3386 Gunnar Park",
				"country": "United States",
				"city": "Cristianmouth",
				"state": "FL",
				"zip": "58947"
			}
		},
		"location": {
			"address": "9494 Mariane Loop",
			"country": "United States",
			"city": "West Hailey",
			"state": "MI",
			"zip": "86434"
		},
		"created": "2019-04-30T08:32:36.181Z",
		"updated": "2019-07-04T21:41:19.473Z",
		"image": "https://source.unsplash.com/960x540/?house&sig=66LgfXFjyN"
	},
	{
		"id": "c6U-RN7kH9K",
		"name": "Hillcrest Stables",
		"description": "Magnam minima quisquam distinctio quasi omnis tenetur. Natus dignissimos voluptatem. Voluptatem vel ut dolorem atque.",
		"owner": {
			"name": "Raven Sawayn",
			"phone": "737-386-9223",
			"email": "raven.sawayn@example.com",
			"location": {
				"address": "4044 Mertz Trace",
				"country": "United States",
				"city": "Casperberg",
				"state": "TX",
				"zip": "00681"
			}
		},
		"location": {
			"address": "4951 Kaitlyn Field",
			"country": "United States",
			"city": "New Rashad",
			"state": "NV",
			"zip": "02174"
		},
		"created": "2019-04-14T18:22:35.082Z",
		"updated": "2019-06-28T06:19:10.705Z",
		"image": "https://source.unsplash.com/960x540/?house&sig=c6U-RN7kH9K"
	},
	{
		"id": "HTtIcldVA63",
		"name": "The Beeches",
		"description": "Placeat voluptatem dolor et omnis quidem. Reiciendis eveniet ipsam aut nihil assumenda. Necessitatibus vel debitis rerum quia voluptatem. Aut qui eos facere fugit tempore est placeat. Eligendi eos voluptate et.",
		"owner": {
			"name": "Joanne Price",
			"phone": "553-939-6239",
			"email": "joanne.price@example.com",
			"location": {
				"address": "4994 Alessandra Knoll",
				"country": "United States",
				"city": "Yundtmouth",
				"state": "CA",
				"zip": "50490"
			}
		},
		"location": {
			"address": "7201 Hahn Hills",
			"country": "United States",
			"city": "West Omafurt",
			"state": "OH",
			"zip": "59916"
		},
		"created": "2019-02-19T11:27:15.005Z",
		"updated": "2019-06-05T22:14:19.701Z",
		"image": "https://source.unsplash.com/960x540/?house&sig=HTtIcldVA63"
	},
	{
		"id": "PjDXw8ZA-w5",
		"name": "Springfield Lake Resort",
		"description": "Accusamus delectus enim consequatur. Reiciendis voluptate laudantium excepturi aliquam. Facere maiores laudantium. Dolor est et quasi. Qui ut alias a.",
		"owner": {
			"name": "Jennings Pollich",
			"phone": "166-195-9755",
			"email": "jennings.pollich@example.com",
			"location": {
				"address": "5788 Altenwerth Centers",
				"country": "United States",
				"city": "Jordonfort",
				"state": "ND",
				"zip": "98270"
			}
		},
		"location": {
			"address": "5260 Everett View",
			"country": "United States",
			"city": "Kunzeland",
			"state": "SD",
			"zip": "32995"
		},
		"created": "2019-06-05T20:54:43.096Z",
		"updated": "2019-06-07T14:44:10.781Z",
		"image": "https://source.unsplash.com/960x540/?house&sig=PjDXw8ZA-w5"
	},
	{
		"id": "GzeRDHbfo6u",
		"name": "Laurels Hill",
		"description": "Est incidunt et ut qui id et. Voluptatem perferendis repellat ad iusto rerum.",
		"owner": {
			"name": "Mireya Jerde",
			"phone": "805-462-6600",
			"email": "mireya.jerde@example.com",
			"location": {
				"address": "1520 Nadia Squares",
				"country": "United States",
				"city": "New Rudolph",
				"state": "WV",
				"zip": "00613"
			}
		},
		"location": {
			"address": "9782 Lon Greens",
			"country": "United States",
			"city": "Christiansenland",
			"state": "DC",
			"zip": "17887"
		},
		"created": "2019-01-10T07:57:41.666Z",
		"updated": "2019-01-17T01:28:48.085Z",
		"image": "https://source.unsplash.com/960x540/?house&sig=GzeRDHbfo6u"
	}
]